[{"business_status": "OPERATIONAL", "geometry": {"location": {"lat": 24.8061022, "lng": 120.9641544}, "viewport": {"northeast": {"lat": 24.80749237989272, "lng": 120.9655710298928}, "southwest": {"lat": 24.80479272010728, "lng": 120.9628713701073}}}, "icon": "https://maps.gstatic.com/mapfiles/place_api/icons/v1/png_71/restaurant-71.png", "name": "\u4e8c\u5341\u4e03\u865f\u5eda\u623f", "opening_hours": {"open_now": true}, "photos": [{"height": 2250, "html_attributions": ["<a href=\"https://maps.google.com/maps/contrib/115593331976343061615\">\u6797\u662d\u541f</a>"], "photo_reference": "ATtYBwIAkN82QRPN_FlFkG62MAseF9aPM3EeHNXwSZhz1GyyO40Mwk6LTac_xEn4faO6A81uIjrc4E_VS1-gWBVPbWhnqolEg66hGwmFkiRjyyIc6SxU0fee5Pj2KcUqU_uPogm5N1q0D9C0f1vWCAXsWjoMN22mUYjSDT7ra2lTeV4Bp3WK", "width": 4000}], "place_id": "ChIJufZ8hb81aDQRTS-FXkS3nJ8", "plus_code": {"compound_code": "RX47+CM North District, Hsinchu City", "global_code": "7QP2RX47+CM"}, "rating": 4.1, "reference": "ChIJufZ8hb81aDQRTS-FXkS3nJ8", "scope": "GOOGLE", "types": ["restaurant", "food", "point_of_interest", "establishment"], "user_ratings_total": 118, "vicinity": "No. 27, Rende Street, North District"}, {"business_status": "OPERATIONAL", "geometry": {"location": {"lat": 24.805494, "lng": 120.969869}, "viewport": {"northeast": {"lat": 24.80688092989272, "lng": 120.9711889798928}, "southwest": {"lat": 24.80418127010728, "lng": 120.9684893201073}}}, "icon": "https://maps.gstatic.com/mapfiles/place_api/icons/v1/png_71/restaurant-71.png", "name": "\u540d\u53e4\u5c4b\u6599\u4ead-\u4e2d\u6b63\u5e97#\u5bb5\u591c\u805a\u9910\u9996\u9078#\u5728\u5730\u63a8\u85a6\u65e5\u6599#\u65b0\u7af9\u7f8e\u98df#\u7121\u83dc\u55ae\u5403\u5230\u98fd#\u5c45\u9152\u5c4b\u63a8\u85a6#\u65b0\u7af9\u5fc5\u5403\u540d\u5e97#\u4eba\u6c23\u7f8e\u98df\u63a8\u85a6#\u65e5\u5f0f\u6599\u7406\u63a8\u85a6", "opening_hours": {"open_now": true}, "photos": [{"height": 402, "html_attributions": ["<a href=\"https://maps.google.com/maps/contrib/107164715561812677855\">A Google User</a>"], "photo_reference": "ATtYBwLd4GnNQejI-O0JnPzwCXnMquRFSEKwSYTP__CaIN1Bz7wpULBbDvN3OQKJpDawY8dWbCJ3oMQL6o4rK6wLGOn29z91LEiDLL4WuaTFnJSaPJvfbdlAS5ChgVtxMLu7kvcgm0Fn1-ckC8EmePxQ9RKVqhGMz_4gXKNauwKrSRGlAhq3", "width": 600}], "place_id": "ChIJ-bgLeME1aDQRqLzsoBIR8oI", "plus_code": {"compound_code": "RX49+5W East District, Hsinchu City", "global_code": "7QP2RX49+5W"}, "price_level": 2, "rating": 4.3, "reference": "ChIJ-bgLeME1aDQRqLzsoBIR8oI", "scope": "GOOGLE", "types": ["restaurant", "food", "point_of_interest", "store", "establishment"], "user_ratings_total": 2057, "vicinity": "East District, Lane 96, Zhongzheng Road, 4\u865f1F"}, {"business_status": "OPERATIONAL", "geometry": {"location": {"lat": 24.8166149, "lng": 121.0206933}, "viewport": {"northeast": {"lat": 24.81800227989272, "lng": 121.0220614798927}, "southwest": {"lat": 24.81530262010727, "lng": 121.0193618201073}}}, "icon": "https://maps.gstatic.com/mapfiles/place_api/icons/v1/png_71/restaurant-71.png", "name": "Homie_Bistro \u8001\u9109\u9910\u9152\u9928-\u5275\u610f\u6599\u7406 \u9910\u9152\u9928 \u7570\u570b\u6599\u7406 \u4e2d\u5f0f\u897f\u5f0f\u6599\u7406 \u6df1\u591c\u98df\u5802 \u670b\u53cb\u516c\u53f8\u805a\u9910\u805a\u6703 \u9732\u5929\u9910\u9152\u9928 \u9910\u5ef3\u5305\u5834 \u5834\u5730\u79df\u501f \u5c3e\u7259\u6625\u9152", "opening_hours": {"open_now": true}, "photos": [{"height": 487, "html_attributions": ["<a href=\"https://maps.google.com/maps/contrib/114374568627965183275\">A Google User</a>"], "photo_reference": "ATtYBwIIJQMkUWYtkWDFK80uBv455iewbxOfEzOgqCcGOGKw0TGdmNWaBdYvjnPHt024GnyRpGaa-znbB3c91imwBsbs0N05qRKXImN-60x1I6jk9Qhu9C5-k8KZfZRz27XP6u_SE5yaHg-neXb6BJqbegIgIfLkj2TONn5bWG9SJ8rL_01b", "width": 730}], "place_id": "ChIJQ_ZWC-03aDQRoZzZBsLimOA", "plus_code": {"compound_code": "R28C+J7 Zhubei City, Hsinchu County", "global_code": "7QP3R28C+J7"}, "rating": 4.1, "reference": "ChIJQ_ZWC-03aDQRoZzZBsLimOA", "scope": "GOOGLE", "types": ["restaurant", "food", "point_of_interest", "establishment"], "user_ratings_total": 62, "vicinity": "No. 226\u865f, Chenggong 8th Road, Zhubei City"}, {"business_status": "OPERATIONAL", "geometry": {"location": {"lat": 24.8021098, "lng": 120.9704184}, "viewport": {"northeast": {"lat": 24.80333077989272, "lng": 120.9717441798927}, "southwest": {"lat": 24.80063112010728, "lng": 120.9690445201073}}}, "icon": "https://maps.gstatic.com/mapfiles/place_api/icons/v1/png_71/restaurant-71.png", "name": "LENINI \u6a02\u5c3c\u5c3c\u7fa9\u5f0f\u9910\u5ef3-\u65b0\u7af9\u6676\u54c1\u57ce\u5e97", "opening_hours": {"open_now": false}, "photos": [{"height": 533, "html_attributions": ["<a href=\"https://maps.google.com/maps/contrib/110065162320624366181\">\u4eac\u57ce\u5de5\u574a</a>"], "photo_reference": "ATtYBwIE0cGE0RSVSXkS1ewqGNWgf2o0OSrWdKa40XTWzy1cI4KWuBuMTmS4D3YDBpahEpZqRn7nlExRurjmPz19n_sLuV8KoYlkxhLuWTv-buSh6JTEVFJkU9adsUMzmNMgR0eM6GS_OfcrbL29nqLP9G6XrKwQvkJ1VOJ3CcqFoVh8AmTa", "width": 800}], "place_id": "ChIJQTyFAuo1aDQRd1C0DyHUD_k", "plus_code": {"compound_code": "RX2C+R5 East District, Hsinchu City", "global_code": "7QP2RX2C+R5"}, "price_level": 2, "rating": 4.1, "reference": "ChIJQTyFAuo1aDQRd1C0DyHUD_k", "scope": "GOOGLE", "types": ["restaurant", "food", "point_of_interest", "establishment"], "user_ratings_total": 850, "vicinity": "East District, Linsen Road, 18\u865f13\u6a13"}, {"business_status": "OPERATIONAL", "geometry": {"location": {"lat": 24.8324069, "lng": 121.0106008}, "viewport": {"northeast": {"lat": 24.83377937989272, "lng": 121.0119625798927}, "southwest": {"lat": 24.83107972010728, "lng": 121.0092629201073}}}, "icon": "https://maps.gstatic.com/mapfiles/place_api/icons/v1/png_71/restaurant-71.png", "name": "TOSCANINI Italian Restaurant", "opening_hours": {"open_now": false}, "photos": [{"height": 2448, "html_attributions": ["<a href=\"https://maps.google.com/maps/contrib/105178093250769947076\">Sheng Han Su</a>"], "photo_reference": "ATtYBwIsSyO2EocpQqQCUcrdiYi_iZvlE7B6iNF7Ea-v6sLyicL_Ntxz5f7FuuPZSt9GBQxktStC5Iv89ROOEnJA1Omep2bq8fvH6SIkRMzYOpITBUnFe3qBOZkAUX3GEH1Gr3OSdYxfJwJIqCUpaYBAs0JQVrmErd81n876WpVXYF0sZl99", "width": 3264}], "place_id": "ChIJxcmpNOs2aDQRgFFhqVzX6r4", "plus_code": {"compound_code": "R2J6+X6 Zhubei City, Hsinchu County", "global_code": "7QP3R2J6+X6"}, "price_level": 2, "rating": 4.1, "reference": "ChIJxcmpNOs2aDQRgFFhqVzX6r4", "scope": "GOOGLE", "types": ["restaurant", "food", "point_of_interest", "establishment"], "user_ratings_total": 1025, "vicinity": "Zhubei City, Wenxin Road, 355\u865f"}, {"business_status": "OPERATIONAL", "geometry": {"location": {"lat": 24.8171901, "lng": 121.0201541}, "viewport": {"northeast": {"lat": 24.81849772989272, "lng": 121.0216128298927}, "southwest": {"lat": 24.81579807010728, "lng": 121.0189131701073}}}, "icon": "https://maps.gstatic.com/mapfiles/place_api/icons/v1/png_71/restaurant-71.png", "name": "\u91d1\u9280\u5cf6\u4e3b\u984c\u9910\u5ef3 \u3001\u65b0\u7af9\u7af9\u5317\u7f8e\u98df\u9910\u5ef3\u3001\u7af9\u5317\u559c\u5bb4\u9910\u5ef3\u3001\u65b0\u7af9\u9910\u5ef3\u63a8\u85a6", "opening_hours": {"open_now": false}, "photos": [{"height": 1280, "html_attributions": ["<a href=\"https://maps.google.com/maps/contrib/100826440492100312945\">Timmy Vong</a>"], "photo_reference": "ATtYBwJ0V1avuM5LIpKXn_N7hl-5gRWKIiLr27uQ0YzeSenCPIm8hsMl2Pjh7IICIMbHuDsZZHQ9cvx22TZzizHAJIdhrxBXlLdbwRnjK2MXQgigF0fPEWQLgohX91u6X_4r7vz1A66ROKHRmnTPqoKhhCctfOpEZ7vI4cEqDHM-j0QZd6Uo", "width": 1920}], "place_id": "ChIJo3QSOvc2aDQR5kdNoET3Jek", "plus_code": {"compound_code": "R28C+V3 Zhubei City, Hsinchu County", "global_code": "7QP3R28C+V3"}, "price_level": 2, "rating": 3.8, "reference": "ChIJo3QSOvc2aDQR5kdNoET3Jek", "scope": "GOOGLE", "types": ["restaurant", "food", "point_of_interest", "establishment"], "user_ratings_total": 520, "vicinity": "No. 118\u865f, Zhuangjing South Road, Zhubei City"}, {"business_status": "OPERATIONAL", "geometry": {"location": {"lat": 24.7961236, "lng": 121.0022191}, "viewport": {"northeast": {"lat": 24.79745472989272, "lng": 121.0035256798927}, "southwest": {"lat": 24.79475507010727, "lng": 121.0008260201073}}}, "icon": "https://maps.gstatic.com/mapfiles/place_api/icons/v1/png_71/restaurant-71.png", "name": "Fu Ou Yi Shi Restaurant", "opening_hours": {"open_now": false}, "photos": [{"height": 3024, "html_attributions": ["<a href=\"https://maps.google.com/maps/contrib/117414390272933287920\">\u5ed6\u5a49\u541b</a>"], "photo_reference": "ATtYBwLmraxdtlIMp9Bw_xjvhP4is8i4xrxLjwXaBfSO1ZrteKSj8RGYB_kJBAYzctO2k8bF4MhpzCYG0Mfowtm5ljCYa4bsqHAMScernqRCZgmJalaxBlHZYKYrJNSyllbRPjLZVIm8Sf8EbYCvmrzug1_ICZjUFdUHj_xkG2HH4TwIsmUr", "width": 4032}], "place_id": "ChIJPQcl12w2aDQRfuPFFmkGhxU", "plus_code": {"compound_code": "Q2W2+CV East District, Hsinchu City", "global_code": "7QP3Q2W2+CV"}, "price_level": 2, "rating": 4.2, "reference": "ChIJPQcl12w2aDQRfuPFFmkGhxU", "scope": "GOOGLE", "types": ["restaurant", "food", "point_of_interest", "establishment"], "user_ratings_total": 1164, "vicinity": "East District, \u91d1\u57ce\u4e8c\u8def38\u865f"}, {"business_status": "OPERATIONAL", "geometry": {"location": {"lat": 24.8067774, "lng": 120.9735732}, "viewport": {"northeast": {"lat": 24.80811432989272, "lng": 120.9749025298927}, "southwest": {"lat": 24.80541467010728, "lng": 120.9722028701073}}}, "icon": "https://maps.gstatic.com/mapfiles/place_api/icons/v1/png_71/restaurant-71.png", "name": "Kanazawa Japanese", "opening_hours": {"open_now": false}, "photos": [{"height": 534, "html_attributions": ["<a href=\"https://maps.google.com/maps/contrib/104983859537446804422\">Sam Huang</a>"], "photo_reference": "ATtYBwKyP9dzscctn4bFRhhaGqZI_bNSeqFsroqInKfVbECHEi1tc-EvnukvjiNKbkmNt0WPGoP_rmqOiyaKqT6bapieexodA_ImAlnoQp3cbQMz0vuCEN04XlMGGiHvgb06UiTfNUKTL7r-KJbdOdi4hYzL5YT_M8iCHzwOTOy9CkdvPbE", "width": 800}], "place_id": "ChIJ32PieMM1aDQRqlcOSCYECCA", "plus_code": {"compound_code": "RX4F+PC East District, Hsinchu City", "global_code": "7QP2RX4F+PC"}, "price_level": 2, "rating": 3.7, "reference": "ChIJ32PieMM1aDQRqlcOSCYECCA", "scope": "GOOGLE", "types": ["restaurant", "food", "point_of_interest", "establishment"], "user_ratings_total": 217, "vicinity": "No. 6\u865f, Lane 2, Sanmin Road, East District"}, {"business_status": "OPERATIONAL", "geometry": {"location": {"lat": 24.8158066, "lng": 121.0205053}, "viewport": {"northeast": {"lat": 24.81705252989272, "lng": 121.0217945298927}, "southwest": {"lat": 24.81435287010728, "lng": 121.0190948701073}}}, "icon": "https://maps.gstatic.com/mapfiles/place_api/icons/v1/png_71/restaurant-71.png", "name": "\u56de\u5bb6\u8da3\u8907\u5408\u5f0f\u9910\u5ef3", "opening_hours": {"open_now": false}, "photos": [{"height": 3559, "html_attributions": ["<a href=\"https://maps.google.com/maps/contrib/107504134103416783471\">\u912dHAO HAO</a>"], "photo_reference": "ATtYBwJWXhDX5O78ou6BD1QFVhQjS73_NftVQNtt8MiNZWS--_kvPq9fdxHlLZpmhBXvTqtgAiakLyh2cp_kKJU11-3_Ryq-ffbWL8M17V5ExKiAQyUCAZaWNbEjS5yw2PpbjuelPMFidJK9ilWJBvhajsqMGU3Qq5LkKhYqjl39BOuI3FWc", "width": 5339}], "place_id": "ChIJ4Y_N7N81aDQRhrOHOVz_b3g", "plus_code": {"compound_code": "R28C+86 Zhubei City, Hsinchu County", "global_code": "7QP3R28C+86"}, "price_level": 2, "rating": 4.4, "reference": "ChIJ4Y_N7N81aDQRhrOHOVz_b3g", "scope": "GOOGLE", "types": ["restaurant", "food", "point_of_interest", "establishment"], "user_ratings_total": 392, "vicinity": "No. 19\u865f, Chenggong 11th Street, Zhubei City"}, {"business_status": "OPERATIONAL", "geometry": {"location": {"lat": 24.835256, "lng": 121.009505}, "viewport": {"northeast": {"lat": 24.83663247989272, "lng": 121.0108142798927}, "southwest": {"lat": 24.83393282010728, "lng": 121.0081146201073}}}, "icon": "https://maps.gstatic.com/mapfiles/place_api/icons/v1/png_71/restaurant-71.png", "name": "\u98df\u5728\u5df7\u5f04", "opening_hours": {"open_now": false}, "photos": [{"height": 3024, "html_attributions": ["<a href=\"https://maps.google.com/maps/contrib/103429086012128231566\">\u674e\u8001\u723a</a>"], "photo_reference": "ATtYBwIToAG2rywplRC4fRLuYwtgsq24BN7qFteHkTeHdsKlhV540bfWKsAriLMSy70r6n3Pknmshf5O31P30H1_4RpJlsH5d2vMeE9zSJk18IhAfZ7wlYeBwFh1ImiYm3u4DYFHpRwKISg2QNkCSN4T1rhwXPouoKA-4wijS4Gwb6oMGvpn", "width": 4032}], "place_id": "ChIJ_Zu0RpU2aDQRwPWP1s2ihk4", "plus_code": {"compound_code": "R2P5+4R Zhubei City, Hsinchu County", "global_code": "7QP3R2P5+4R"}, "price_level": 2, "rating": 4.3, "reference": "ChIJ_Zu0RpU2aDQRwPWP1s2ihk4", "scope": "GOOGLE", "types": ["restaurant", "food", "point_of_interest", "establishment"], "user_ratings_total": 224, "vicinity": "No. 3, Lane 58, Fude Street, Zhubei City"}, {"business_status": "OPERATIONAL", "geometry": {"location": {"lat": 24.8184441, "lng": 121.0224097}, "viewport": {"northeast": {"lat": 24.81984867989272, "lng": 121.0237946298927}, "southwest": {"lat": 24.81714902010728, "lng": 121.0210949701073}}}, "icon": "https://maps.gstatic.com/mapfiles/place_api/icons/v1/png_71/restaurant-71.png", "name": "Moon of Wind City", "opening_hours": {"open_now": false}, "photos": [{"height": 3376, "html_attributions": ["<a href=\"https://maps.google.com/maps/contrib/112775943622836577181\">Roy Lee</a>"], "photo_reference": "ATtYBwKoM3ZDXmlzI463fXrdmHOXZbIZP9zkXque_vAZVQg0DD9KkRm49TeGhDf7ZEjfJYdewZRid3xpxG8CFCxZX1mWvaK4ULRG0pL9ar8Q2DMPA1KNzSrLUtSUEmWZWoqNNvIYh0eG4mQLi_OfF74UlV4RZyO8iigM4cziVTJ726znC_Wh", "width": 5984}], "place_id": "ChIJkwRzDPo2aDQRstFs21jST5A", "plus_code": {"compound_code": "R29C+9X Zhubei City, Hsinchu County", "global_code": "7QP3R29C+9X"}, "price_level": 2, "rating": 4, "reference": "ChIJkwRzDPo2aDQRstFs21jST5A", "scope": "GOOGLE", "types": ["restaurant", "food", "point_of_interest", "establishment"], "user_ratings_total": 1902, "vicinity": "No. 268, Section 1, Fuxing East Road, Zhubei City"}, {"business_status": "OPERATIONAL", "geometry": {"location": {"lat": 24.8412073, "lng": 121.0199081}, "viewport": {"northeast": {"lat": 24.84238812989272, "lng": 121.0211494298927}, "southwest": {"lat": 24.83968847010728, "lng": 121.0184497701073}}}, "icon": "https://maps.gstatic.com/mapfiles/place_api/icons/v1/png_71/restaurant-71.png", "name": "\u53f0\u5143\u82b1\u5712\u9910\u5ef3sabrosa", "opening_hours": {"open_now": false}, "photos": [{"height": 4608, "html_attributions": ["<a href=\"https://maps.google.com/maps/contrib/101766678437666386692\">Prateek Pareek</a>"], "photo_reference": "ATtYBwJVT-ox4QaN_hygtHP01E2G0DeYfFShMjLwmjaUlrswjveZj_M2rd-BAZLwIN5EnCQFKpD4Dc1ix3pAVsN-jWFjKaafOBho6ImJT6v44bQuuxV_3XSvnXXuoQsEHkVIxezW8Ns-oGUAgNdiDL73yx-muAy4pbVH2YUM3cuicIwkn-zO", "width": 2304}], "place_id": "ChIJmYLI88Q2aDQRx9LP5frn7Do", "plus_code": {"compound_code": "R2R9+FX Zhubei City, Hsinchu County", "global_code": "7QP3R2R9+FX"}, "price_level": 2, "rating": 3.8, "reference": "ChIJmYLI88Q2aDQRx9LP5frn7Do", "scope": "GOOGLE", "types": ["restaurant", "food", "point_of_interest", "establishment"], "user_ratings_total": 346, "vicinity": "No. 2\u865f, Taiyuan 1st Street, Zhubei City"}, {"business_status": "OPERATIONAL", "geometry": {"location": {"lat": 24.8789221, "lng": 120.981069}, "viewport": {"northeast": {"lat": 24.88038787989272, "lng": 120.9825277798927}, "southwest": {"lat": 24.87768822010728, "lng": 120.9798281201073}}}, "icon": "https://maps.gstatic.com/mapfiles/place_api/icons/v1/png_71/restaurant-71.png", "name": "\u65b0\u8c50\u7403\u5834-\u570b\u8cd3\u4e2d\u9910\u5ef3", "opening_hours": {"open_now": false}, "photos": [{"height": 3024, "html_attributions": ["<a href=\"https://maps.google.com/maps/contrib/110905147919313768703\">\u5353\u98ef\u7cf0</a>"], "photo_reference": "ATtYBwKsKh5IBZP6lbkLbw3VxxEngYV9eoD0naTQ3ywkRdiRYuDHvNNVG9V6NO-AYe867l76pCIxZgcL_vk1NWkznvVbrDSv__F9SgemCOGaIrOsmw9lVW1RAl7eOsyjfbg2pjYcYeuZqMHCmIMJnsyh8iqwTkvBl1Li0rj2rgopyUx7thLz", "width": 3024}], "place_id": "ChIJqzOBkb8zaDQRRNSI2ZjG-YM", "plus_code": {"compound_code": "VXHJ+HC Xinfeng Township, Hsinchu County", "global_code": "7QP2VXHJ+HC"}, "rating": 3.9, "reference": "ChIJqzOBkb8zaDQRRNSI2ZjG-YM", "scope": "GOOGLE", "types": ["restaurant", "food", "point_of_interest", "establishment"], "user_ratings_total": 101, "vicinity": "No. 104\u865f, \u5751\u5b50\u53e3, Xinfeng Township"}, {"business_status": "OPERATIONAL", "geometry": {"location": {"lat": 24.8103698, "lng": 121.0364851}, "viewport": {"northeast": {"lat": 24.81171962989272, "lng": 121.0378349298927}, "southwest": {"lat": 24.80901997010728, "lng": 121.0351352701073}}}, "icon": "https://maps.gstatic.com/mapfiles/place_api/icons/v1/png_71/restaurant-71.png", "name": "Bistro302 \u539f\u5473\u6599\u7406\u9910\u5ef3", "opening_hours": {"open_now": false}, "photos": [{"height": 3000, "html_attributions": ["<a href=\"https://maps.google.com/maps/contrib/102635829615731061589\">Franky Chen</a>"], "photo_reference": "ATtYBwLNismzrolNww2kVNSn_gEXQI6aFcuhlYZ74iSM708-NQ_x-N1Fmv5U1JFDR4z8e18-anCzA_2XaZCJ2F4QbjE9xXbByLCnGogdSsOs9NaJM2lnhyAkZapmzfr_w9sb73td-qHSUWcDYzfxbM23LXpQmOoL6RdP5W42nsfusaZLXrAx", "width": 4000}], "place_id": "ChIJRTmW9QA3aDQRULFpEdWHUk0", "plus_code": {"compound_code": "R26P+4H Zhubei City, Hsinchu County", "global_code": "7QP3R26P+4H"}, "price_level": 3, "rating": 4.1, "reference": "ChIJRTmW9QA3aDQRULFpEdWHUk0", "scope": "GOOGLE", "types": ["restaurant", "food", "point_of_interest", "establishment"], "user_ratings_total": 788, "vicinity": "Zhubei City, Section 1, Jiafeng 11th Rd, 30\u865f2\u6a13"}, {"business_status": "OPERATIONAL", "geometry": {"location": {"lat": 24.8071925, "lng": 120.9779874}, "viewport": {"northeast": {"lat": 24.80856907989272, "lng": 120.9793813798927}, "southwest": {"lat": 24.80586942010728, "lng": 120.9766817201073}}}, "icon": "https://maps.gstatic.com/mapfiles/place_api/icons/v1/png_71/restaurant-71.png", "name": "Yummy\u79c1\u623f\u6599\u7406", "opening_hours": {"open_now": false}, "photos": [{"height": 1941, "html_attributions": ["<a href=\"https://maps.google.com/maps/contrib/115430959106720610846\">Yujane Huang</a>"], "photo_reference": "ATtYBwKwZqfkNJGqOQeVXvFQU9PQBgOAhNY6R_hmrsBUXwjWqQnJGnr51Sy45MBetJ2ujSgbDV7JiAJ0Vzxkwr6hCV07nNFnKMf5gFUsDO2ic2sYqBUUyHI-teQ1mRHVYXc6OhU6tpJsTD6MpNtGPWNb4QdFX791pKYm4q91q31y-Iyj2Y0e", "width": 1941}], "place_id": "ChIJFcaxbts1aDQRCshSsriUZHw", "plus_code": {"compound_code": "RX4H+V5 East District, Hsinchu City", "global_code": "7QP2RX4H+V5"}, "price_level": 2, "rating": 4, "reference": "ChIJFcaxbts1aDQRCshSsriUZHw", "scope": "GOOGLE", "types": ["restaurant", "food", "point_of_interest", "establishment"], "user_ratings_total": 563, "vicinity": "No. 70\u865f, Lane 170, Section 2, Zhonghua Road, East District"}, {"business_status": "OPERATIONAL", "geometry": {"location": {"lat": 24.8191544, "lng": 120.9827978}, "viewport": {"northeast": {"lat": 24.82047642989272, "lng": 120.9841030798927}, "southwest": {"lat": 24.81777677010728, "lng": 120.9814034201073}}}, "icon": "https://maps.gstatic.com/mapfiles/place_api/icons/v1/png_71/restaurant-71.png", "name": "\u8c37\u5ea6\u9957\u6cf0\u96c5\u90e8\u843d\u539f\u4f4f\u6c11\u4e3b\u984c\u9910\u5ef3(\u5916\u71f4\u3001\u98a8\u5473\u9910\u3001\u99d0\u5531\u8868\u6f14)\u63a8\u85a6\u9910\u5ef3\u3001\u7279\u8272\u9910\u5ef3\u3001\u751f\u65e5\u512a\u60e0\u3001\u71b1\u9580\u9910\u5ef3\u3001\u71b1\u9580\u666f\u9ede\u3001\u65b0\u7af9 \u9910\u5ef3\u3001\u7af9\u5317 \u9910\u5ef3", "opening_hours": {"open_now": false}, "photos": [{"height": 2248, "html_attributions": ["<a href=\"https://maps.google.com/maps/contrib/106071036539331342124\">stephen ho</a>"], "photo_reference": "ATtYBwLEBx1OYpxaRSgRDaRcJ9zbCbysh-__YIFYL-5EZRAmNrijcO8uG8PDd3Z9TOGszXs5ooq7AfRDKdp0oImahfHg1eCQviJQ6LlzOcMh3ggzJMLrE9RupQeiI3XAoGxUbRF-1s8m3_nqUej2J5NKLrNt1Eeciate8YR2Td8BMhfkLOpm", "width": 4000}], "place_id": "ChIJGTuDxiw0aDQRjvhvNomxe4s", "plus_code": {"compound_code": "RX9M+M4 East District, Hsinchu City", "global_code": "7QP2RX9M+M4"}, "price_level": 2, "rating": 4.3, "reference": "ChIJGTuDxiw0aDQRjvhvNomxe4s", "scope": "GOOGLE", "types": ["restaurant", "food", "point_of_interest", "establishment"], "user_ratings_total": 246, "vicinity": "No. 606-5\u865f, Section 3, Gongdaowu Road, East District"}, {"business_status": "OPERATIONAL", "geometry": {"location": {"lat": 24.8099446, "lng": 120.9782194}, "viewport": {"northeast": {"lat": 24.81124402989272, "lng": 120.9796090798927}, "southwest": {"lat": 24.80854437010728, "lng": 120.9769094201072}}}, "icon": "https://maps.gstatic.com/mapfiles/place_api/icons/v1/png_71/restaurant-71.png", "name": "\u590f\u5361\u74e6\u5496\u5561\u9910\u5ef3", "opening_hours": {"open_now": false}, "photos": [{"height": 4000, "html_attributions": ["<a href=\"https://maps.google.com/maps/contrib/109568130805539626326\">Jack Cheng</a>"], "photo_reference": "ATtYBwJN3tvHHR1Z9L0UF-MKjcThE7HpD_OU_S0saVT74wwtk5VwkStCVC0e1FvpDd4hlPQ0guDRwvP30W5I6EyGwrnzMqQrwYS27ybntPPdAUNhVCDtzf0x1465Ix2ptlGIiNUiNW5K0ZLjQ0wEe3iYZJk1bFKxGfgKHzkMFHMc7ns_CFaq", "width": 3000}], "place_id": "ChIJ9UHB7do1aDQRqmwWYibh-Qs", "plus_code": {"compound_code": "RX5H+X7 East District, Hsinchu City", "global_code": "7QP2RX5H+X7"}, "price_level": 2, "rating": 4, "reference": "ChIJ9UHB7do1aDQRqmwWYibh-Qs", "scope": "GOOGLE", "types": ["restaurant", "food", "point_of_interest", "establishment"], "user_ratings_total": 411, "vicinity": "1, No. 105\u865f, Sanmin Road, East District"}, {"business_status": "OPERATIONAL", "geometry": {"location": {"lat": 24.8224032, "lng": 121.0290067}, "viewport": {"northeast": {"lat": 24.82381837989272, "lng": 121.0303825298927}, "southwest": {"lat": 24.82111872010728, "lng": 121.0276828701073}}}, "icon": "https://maps.gstatic.com/mapfiles/place_api/icons/v1/png_71/restaurant-71.png", "name": "Bingo\u8cd3\u679c\u5eda\u623f", "opening_hours": {"open_now": false}, "photos": [{"height": 1080, "html_attributions": ["<a href=\"https://maps.google.com/maps/contrib/109605959421663410967\">\u9673\u5e0c\u5091</a>"], "photo_reference": "ATtYBwIObCiD65DXHZd5wbPekkpjrodhtQajLwUuTFwjo9gTZpq6Fim2EuQtDU6lxu58Ng6yxlbzhyGfZUGPeTyZrgGm3nr5dMyU8dQ9Ybfsi1riPlo7ymZfp_sCBEpmjn2_2gMPoxU2TM1_m3XyDMNdxc56EBehhOKUCCVEILl5K3rOz7qP", "width": 1616}], "place_id": "ChIJD2m0QeM2aDQR5uYzlZEC79k", "plus_code": {"compound_code": "R2CH+XJ Zhubei City, Hsinchu County", "global_code": "7QP3R2CH+XJ"}, "price_level": 2, "rating": 4.1, "reference": "ChIJD2m0QeM2aDQR5uYzlZEC79k", "scope": "GOOGLE", "types": ["restaurant", "food", "point_of_interest", "store", "establishment"], "user_ratings_total": 241, "vicinity": "No. 170\u865f, Shengli 3rd Street, Zhubei City"}, {"business_status": "OPERATIONAL", "geometry": {"location": {"lat": 24.8061547, "lng": 120.9713131}, "viewport": {"northeast": {"lat": 24.80749957989272, "lng": 120.9726081298927}, "southwest": {"lat": 24.80479992010727, "lng": 120.9699084701073}}}, "icon": "https://maps.gstatic.com/mapfiles/place_api/icons/v1/png_71/restaurant-71.png", "name": "Grazie", "opening_hours": {"open_now": false}, "photos": [{"height": 3096, "html_attributions": ["<a href=\"https://maps.google.com/maps/contrib/102107079939736454511\">\u8a31\u6f84</a>"], "photo_reference": "ATtYBwJKLuVLgfH1FuZv0I0Y_bQRO2qAkesKVwjZqsw2X_4wM_ohgqKeeeC0cLr4-AwxwPUGymZOa0_o8uwRBoi41HvNRqlb0CtR9z__8lYHCN3rjRTOhiJDhahTVTeWounpQ3nMmJXuec4-CGDGByLJzKXMMq1bfPNXbm5JYwA3Yrv_-myD", "width": 4128}], "place_id": "ChIJr6d6xMM1aDQRIyVS_KNjB4o", "plus_code": {"compound_code": "RX4C+FG East District, Hsinchu City", "global_code": "7QP2RX4C+FG"}, "price_level": 2, "rating": 4.2, "reference": "ChIJr6d6xMM1aDQRIyVS_KNjB4o", "scope": "GOOGLE", "types": ["restaurant", "food", "point_of_interest", "establishment"], "user_ratings_total": 1633, "vicinity": "No. 10\u865f, Wenhua Street, East District"}, {"business_status": "OPERATIONAL", "geometry": {"location": {"lat": 24.7876851, "lng": 121.0174992}, "viewport": {"northeast": {"lat": 24.78905347989272, "lng": 121.0188119798927}, "southwest": {"lat": 24.78635382010728, "lng": 121.0161123201073}}}, "icon": "https://maps.gstatic.com/mapfiles/place_api/icons/v1/png_71/restaurant-71.png", "name": "\u8cb3\u6a13\u9910\u5ef3 Second Floor Cafe \u65b0\u7af9\u5e97", "opening_hours": {"open_now": false}, "photos": [{"height": 3024, "html_attributions": ["<a href=\"https://maps.google.com/maps/contrib/116974813057773764613\">J U</a>"], "photo_reference": "ATtYBwLIYRpudRoG9ZUFoSElJE_-0BMuCnqSl382evyBWE3-68yiaWFr4sKZt6H7owQwYFQhDWUg4UZZP5MXbqNhcftrtfYS-AzFkGJ2ZUgQDdoPhUQljWomu7I8rYES9GXjABf-rBfUTI9pOUJNa_bGCNUsBRb6-zZLpPVfn8XkjqXgkioA", "width": 4032}], "place_id": "ChIJkwb0QDk2aDQRIy0AgTWYBYI", "plus_code": {"compound_code": "Q2Q8+3X East District, Hsinchu City", "global_code": "7QP3Q2Q8+3X"}, "price_level": 2, "rating": 4.2, "reference": "ChIJkwb0QDk2aDQRIy0AgTWYBYI", "scope": "GOOGLE", "types": ["restaurant", "food", "point_of_interest", "store", "establishment"], "user_ratings_total": 3644, "vicinity": "No. 212, Xinzhuang Street, East District"}]