[{"business_status": "OPERATIONAL", "geometry": {"location": {"lat": 24.8061022, "lng": 120.9641544}, "viewport": {"northeast": {"lat": 24.80749237989272, "lng": 120.9655710298928}, "southwest": {"lat": 24.80479272010728, "lng": 120.9628713701073}}}, "icon": "https://maps.gstatic.com/mapfiles/place_api/icons/v1/png_71/restaurant-71.png", "name": "\u4e8c\u5341\u4e03\u865f\u5eda\u623f", "opening_hours": {"open_now": true}, "photos": [{"height": 2250, "html_attributions": ["<a href=\"https://maps.google.com/maps/contrib/115593331976343061615\">\u6797\u662d\u541f</a>"], "photo_reference": "ATtYBwKdlG29Suwn9s1l9vppB3HLCHdTRUhz5ZMjPa8t66j204Y3WWXyrhsE3gu7hr65YwvZUHZxsi_8_r7PfOqk6M6uIydEafYkCIWIKCwajAO861yd4bPDo_nBVLy-ZoI14tH5rL8flIrShxD0J110O0RCPkyv-7O0qP3gA2qF1OuVf-NM", "width": 4000}], "place_id": "ChIJufZ8hb81aDQRTS-FXkS3nJ8", "plus_code": {"compound_code": "RX47+CM North District, Hsinchu City", "global_code": "7QP2RX47+CM"}, "rating": 4.1, "reference": "ChIJufZ8hb81aDQRTS-FXkS3nJ8", "scope": "GOOGLE", "types": ["restaurant", "food", "point_of_interest", "establishment"], "user_ratings_total": 118, "vicinity": "No. 27, Rende Street, North District"}, {"business_status": "OPERATIONAL", "geometry": {"location": {"lat": 24.8169586, "lng": 120.9569248}, "viewport": {"northeast": {"lat": 24.81827052989272, "lng": 120.9582375298927}, "southwest": {"lat": 24.81557087010728, "lng": 120.9555378701073}}}, "icon": "https://maps.gstatic.com/mapfiles/place_api/icons/v1/png_71/restaurant-71.png", "name": "\u6c11\u751f\u963f\u5178\u5eda\u623f", "opening_hours": {"open_now": true}, "photos": [{"height": 1536, "html_attributions": ["<a href=\"https://maps.google.com/maps/contrib/116763158251047324854\">\u5f6d\u6176\u9686</a>"], "photo_reference": "ATtYBwJ_9TjInUmnfab93QaQE4rjgnuXrC4oJ9P5mdY82cLGdxa_Y31FiXIIehEWr-iHgzd6j-LQQELjY4MzP_QhUh-7ZoLPCkKJMs0yg06Cd49-WrA33UGjnu6UT6nI3VDA9rSVNhrUzNEOHuISvlvt96A6CCnSXcnS5F6BGAG1U9gD-zXf", "width": 2730}], "place_id": "ChIJd3ZI2M81aDQRQvzyACz4vTI", "plus_code": {"compound_code": "RX84+QQ North District, Hsinchu City", "global_code": "7QP2RX84+QQ"}, "price_level": 2, "rating": 3.7, "reference": "ChIJd3ZI2M81aDQRQvzyACz4vTI", "scope": "GOOGLE", "types": ["restaurant", "food", "point_of_interest", "establishment"], "user_ratings_total": 368, "vicinity": "No. 538\u865f, Zhongzheng Road, North District"}, {"business_status": "OPERATIONAL", "geometry": {"location": {"lat": 24.805494, "lng": 120.969869}, "viewport": {"northeast": {"lat": 24.80688092989272, "lng": 120.9711889798928}, "southwest": {"lat": 24.80418127010728, "lng": 120.9684893201073}}}, "icon": "https://maps.gstatic.com/mapfiles/place_api/icons/v1/png_71/restaurant-71.png", "name": "\u540d\u53e4\u5c4b\u6599\u4ead-\u4e2d\u6b63\u5e97#\u5bb5\u591c\u805a\u9910\u9996\u9078#\u5728\u5730\u63a8\u85a6\u65e5\u6599#\u65b0\u7af9\u7f8e\u98df#\u7121\u83dc\u55ae\u5403\u5230\u98fd#\u5c45\u9152\u5c4b\u63a8\u85a6#\u65b0\u7af9\u5fc5\u5403\u540d\u5e97#\u4eba\u6c23\u7f8e\u98df\u63a8\u85a6#\u65e5\u5f0f\u6599\u7406\u63a8\u85a6", "opening_hours": {"open_now": true}, "photos": [{"height": 402, "html_attributions": ["<a href=\"https://maps.google.com/maps/contrib/107164715561812677855\">A Google User</a>"], "photo_reference": "ATtYBwLr3_t5Z-2qFE_EV-lfqbyoI5AkN_NyslXYoqJxAtzfc0YNPN8_dza5ZjLFFyx1Bu6GQYT0Bor3ivbnlbr-HTOBYm2KisZJYc2YBpDmkACvvMQPgXkjzMguXL70pHSrYcEI-G1FSXKL7njpY95s5ZQ9LWsrIrAOGzGMCJmGRK7vWJb_", "width": 600}], "place_id": "ChIJ-bgLeME1aDQRqLzsoBIR8oI", "plus_code": {"compound_code": "RX49+5W East District, Hsinchu City", "global_code": "7QP2RX49+5W"}, "price_level": 2, "rating": 4.3, "reference": "ChIJ-bgLeME1aDQRqLzsoBIR8oI", "scope": "GOOGLE", "types": ["restaurant", "food", "point_of_interest", "store", "establishment"], "user_ratings_total": 2057, "vicinity": "East District, Lane 96, Zhongzheng Road, 4\u865f1F"}, {"business_status": "OPERATIONAL", "geometry": {"location": {"lat": 24.8166149, "lng": 121.0206933}, "viewport": {"northeast": {"lat": 24.81800227989272, "lng": 121.0220614798927}, "southwest": {"lat": 24.81530262010727, "lng": 121.0193618201073}}}, "icon": "https://maps.gstatic.com/mapfiles/place_api/icons/v1/png_71/restaurant-71.png", "name": "Homie_Bistro \u8001\u9109\u9910\u9152\u9928-\u5275\u610f\u6599\u7406 \u9910\u9152\u9928 \u7570\u570b\u6599\u7406 \u4e2d\u5f0f\u897f\u5f0f\u6599\u7406 \u6df1\u591c\u98df\u5802 \u670b\u53cb\u516c\u53f8\u805a\u9910\u805a\u6703 \u9732\u5929\u9910\u9152\u9928 \u9910\u5ef3\u5305\u5834 \u5834\u5730\u79df\u501f \u5c3e\u7259\u6625\u9152", "opening_hours": {"open_now": true}, "photos": [{"height": 487, "html_attributions": ["<a href=\"https://maps.google.com/maps/contrib/114374568627965183275\">A Google User</a>"], "photo_reference": "ATtYBwI5KFakmvqeH8zQo6q3A6k7SNbdaCXFD3Ctlo0LzEgH9r4a5QlgmJPnPzxMaG3XiYzlr-6mS1GSv_9aVli5E-EnnCfkIlXEnZv9qRmCRo4YwHSrSHkFeWy-tXkLx7DGAb2VGN13vX8qu4L4DKCOO_nJAyhQSdHIKsxlEeXNyqDaktsd", "width": 730}], "place_id": "ChIJQ_ZWC-03aDQRoZzZBsLimOA", "plus_code": {"compound_code": "R28C+J7 Zhubei City, Hsinchu County", "global_code": "7QP3R28C+J7"}, "rating": 4.1, "reference": "ChIJQ_ZWC-03aDQRoZzZBsLimOA", "scope": "GOOGLE", "types": ["restaurant", "food", "point_of_interest", "establishment"], "user_ratings_total": 62, "vicinity": "No. 226\u865f, Chenggong 8th Road, Zhubei City"}, {"business_status": "OPERATIONAL", "geometry": {"location": {"lat": 24.8171901, "lng": 121.0201541}, "viewport": {"northeast": {"lat": 24.81849772989272, "lng": 121.0216128298927}, "southwest": {"lat": 24.81579807010728, "lng": 121.0189131701073}}}, "icon": "https://maps.gstatic.com/mapfiles/place_api/icons/v1/png_71/restaurant-71.png", "name": "\u91d1\u9280\u5cf6\u4e3b\u984c\u9910\u5ef3 \u3001\u65b0\u7af9\u7af9\u5317\u7f8e\u98df\u9910\u5ef3\u3001\u7af9\u5317\u559c\u5bb4\u9910\u5ef3\u3001\u65b0\u7af9\u9910\u5ef3\u63a8\u85a6", "opening_hours": {"open_now": false}, "photos": [{"height": 1280, "html_attributions": ["<a href=\"https://maps.google.com/maps/contrib/100826440492100312945\">Timmy Vong</a>"], "photo_reference": "ATtYBwKr3LbyKqziuDg9CkMz3uo5cgleOhgvaCheI4avJVwAcMcEtAS3wXSR94j--sGbLPHzgoeGRPRQxHtDic0Tebk4cxQLOUujqZEd2y-GmNLdNWj_33h_1m6F1C6LXstjkm3vSvTaRTt-q31xwUF25ztMF6j1cdztnzZegJTjMSVL0uIy", "width": 1920}], "place_id": "ChIJo3QSOvc2aDQR5kdNoET3Jek", "plus_code": {"compound_code": "R28C+V3 Zhubei City, Hsinchu County", "global_code": "7QP3R28C+V3"}, "price_level": 2, "rating": 3.8, "reference": "ChIJo3QSOvc2aDQR5kdNoET3Jek", "scope": "GOOGLE", "types": ["restaurant", "food", "point_of_interest", "establishment"], "user_ratings_total": 520, "vicinity": "No. 118\u865f, Zhuangjing South Road, Zhubei City"}, {"business_status": "OPERATIONAL", "geometry": {"location": {"lat": 24.8021098, "lng": 120.9704184}, "viewport": {"northeast": {"lat": 24.80333077989272, "lng": 120.9717441798927}, "southwest": {"lat": 24.80063112010728, "lng": 120.9690445201073}}}, "icon": "https://maps.gstatic.com/mapfiles/place_api/icons/v1/png_71/restaurant-71.png", "name": "LENINI \u6a02\u5c3c\u5c3c\u7fa9\u5f0f\u9910\u5ef3-\u65b0\u7af9\u6676\u54c1\u57ce\u5e97", "opening_hours": {"open_now": false}, "photos": [{"height": 533, "html_attributions": ["<a href=\"https://maps.google.com/maps/contrib/110065162320624366181\">\u4eac\u57ce\u5de5\u574a</a>"], "photo_reference": "ATtYBwIgKMzblzf0MAAb-1y1P1LH4CwN_yQQGTSqzF8zlNdFeArUnL1AuWjmtO21vFOk7NIo5dtVY0jP_nSYEt_aDEmBCMEincvPL5BuGbzM7grKA27vlfQQybsir4_WE28a5ta4gVtTZ4sDlBB7_ikUBaEBnTczjla1nOk_2i3LKyc2SBGV", "width": 800}], "place_id": "ChIJQTyFAuo1aDQRd1C0DyHUD_k", "plus_code": {"compound_code": "RX2C+R5 East District, Hsinchu City", "global_code": "7QP2RX2C+R5"}, "price_level": 2, "rating": 4.1, "reference": "ChIJQTyFAuo1aDQRd1C0DyHUD_k", "scope": "GOOGLE", "types": ["restaurant", "food", "point_of_interest", "establishment"], "user_ratings_total": 850, "vicinity": "East District, Linsen Road, 18\u865f13\u6a13"}, {"business_status": "OPERATIONAL", "geometry": {"location": {"lat": 24.8324069, "lng": 121.0106008}, "viewport": {"northeast": {"lat": 24.83377937989272, "lng": 121.0119625798927}, "southwest": {"lat": 24.83107972010728, "lng": 121.0092629201073}}}, "icon": "https://maps.gstatic.com/mapfiles/place_api/icons/v1/png_71/restaurant-71.png", "name": "TOSCANINI Italian Restaurant", "opening_hours": {"open_now": false}, "photos": [{"height": 2448, "html_attributions": ["<a href=\"https://maps.google.com/maps/contrib/105178093250769947076\">Sheng Han Su</a>"], "photo_reference": "ATtYBwLKNmokQvyDxbotbORoSgS1EDOL6BCflAHOdRWhkQJovFCZxAQPrkCAt0wJoFx5A8W-0vuXmdKz4R5rEjsBkFKqoo865ZOEM0MHi2J2DNaF_AXYGqIkiTpGXW-MNSYGw6JKI-tmo790g0skjBGxtaOWX2qPOFBMcdi9XDrCglZEG041", "width": 3264}], "place_id": "ChIJxcmpNOs2aDQRgFFhqVzX6r4", "plus_code": {"compound_code": "R2J6+X6 Zhubei City, Hsinchu County", "global_code": "7QP3R2J6+X6"}, "price_level": 2, "rating": 4.1, "reference": "ChIJxcmpNOs2aDQRgFFhqVzX6r4", "scope": "GOOGLE", "types": ["restaurant", "food", "point_of_interest", "establishment"], "user_ratings_total": 1025, "vicinity": "Zhubei City, Wenxin Road, 355\u865f"}, {"business_status": "OPERATIONAL", "geometry": {"location": {"lat": 24.8067774, "lng": 120.9735732}, "viewport": {"northeast": {"lat": 24.80811432989272, "lng": 120.9749025298927}, "southwest": {"lat": 24.80541467010728, "lng": 120.9722028701073}}}, "icon": "https://maps.gstatic.com/mapfiles/place_api/icons/v1/png_71/restaurant-71.png", "name": "Kanazawa Japanese", "opening_hours": {"open_now": false}, "photos": [{"height": 534, "html_attributions": ["<a href=\"https://maps.google.com/maps/contrib/104983859537446804422\">Sam Huang</a>"], "photo_reference": "ATtYBwLt-coTjuEY5nKzUHA53iMOFU2oREAPn_-6MZYFGBahnqpgIdisz3gKxXP-gDdCPHB2IwC5wb2ANzPUhHNx7bJJxEr3bsqphhABCyjrtq160luagne2U9OTx01uPLdiZ20i617_NBGcLPLQOI7kKfRUeW6ucE1VtSFjVkgiLRLEThQ", "width": 800}], "place_id": "ChIJ32PieMM1aDQRqlcOSCYECCA", "plus_code": {"compound_code": "RX4F+PC East District, Hsinchu City", "global_code": "7QP2RX4F+PC"}, "price_level": 2, "rating": 3.7, "reference": "ChIJ32PieMM1aDQRqlcOSCYECCA", "scope": "GOOGLE", "types": ["restaurant", "food", "point_of_interest", "establishment"], "user_ratings_total": 217, "vicinity": "No. 6\u865f, Lane 2, Sanmin Road, East District"}, {"business_status": "OPERATIONAL", "geometry": {"location": {"lat": 24.7961236, "lng": 121.0022191}, "viewport": {"northeast": {"lat": 24.79745472989272, "lng": 121.0035256798927}, "southwest": {"lat": 24.79475507010727, "lng": 121.0008260201073}}}, "icon": "https://maps.gstatic.com/mapfiles/place_api/icons/v1/png_71/restaurant-71.png", "name": "Fu Ou Yi Shi Restaurant", "opening_hours": {"open_now": false}, "photos": [{"height": 3024, "html_attributions": ["<a href=\"https://maps.google.com/maps/contrib/117414390272933287920\">\u5ed6\u5a49\u541b</a>"], "photo_reference": "ATtYBwJ4KRro88pWhsbvvxMmn8xOy3h3F0ItJDK4cwIjh-EdF1UBfxAF1d-1kJnmTUZMO7KllU7CNf5HBVxH6s1fPT9AIef0xtiRRMSzv4PDH-2sUOQF0BVuvp35bbuI3R2RlhszQ1ty81aB-MzXNhsO6cjFHYYGRZFY_rtl1RPMX9Ttv--P", "width": 4032}], "place_id": "ChIJPQcl12w2aDQRfuPFFmkGhxU", "plus_code": {"compound_code": "Q2W2+CV East District, Hsinchu City", "global_code": "7QP3Q2W2+CV"}, "price_level": 2, "rating": 4.2, "reference": "ChIJPQcl12w2aDQRfuPFFmkGhxU", "scope": "GOOGLE", "types": ["restaurant", "food", "point_of_interest", "establishment"], "user_ratings_total": 1164, "vicinity": "East District, \u91d1\u57ce\u4e8c\u8def38\u865f"}, {"business_status": "OPERATIONAL", "geometry": {"location": {"lat": 24.8158066, "lng": 121.0205053}, "viewport": {"northeast": {"lat": 24.81705252989272, "lng": 121.0217945298927}, "southwest": {"lat": 24.81435287010728, "lng": 121.0190948701073}}}, "icon": "https://maps.gstatic.com/mapfiles/place_api/icons/v1/png_71/restaurant-71.png", "name": "\u56de\u5bb6\u8da3\u8907\u5408\u5f0f\u9910\u5ef3", "opening_hours": {"open_now": false}, "photos": [{"height": 3559, "html_attributions": ["<a href=\"https://maps.google.com/maps/contrib/107504134103416783471\">\u912dHAO HAO</a>"], "photo_reference": "ATtYBwLDKgTnr5oaonppVczH8cMxS81vFgs543zmNDxVR_1ozVlwelGYB5tLkPvrxwwMEG9dRUqDoAQIkyPs8Gs6Rc5KzzQNqxiHqDdy6pNXyaoiXcQ9U7RwCMTGa9S9RBfdRpi8iRISiLMslx6PiTV6kQcdhwftF9dyTg8u5FSDM3hjlXkg", "width": 5339}], "place_id": "ChIJ4Y_N7N81aDQRhrOHOVz_b3g", "plus_code": {"compound_code": "R28C+86 Zhubei City, Hsinchu County", "global_code": "7QP3R28C+86"}, "price_level": 2, "rating": 4.4, "reference": "ChIJ4Y_N7N81aDQRhrOHOVz_b3g", "scope": "GOOGLE", "types": ["restaurant", "food", "point_of_interest", "establishment"], "user_ratings_total": 392, "vicinity": "No. 19\u865f, Chenggong 11th Street, Zhubei City"}, {"business_status": "OPERATIONAL", "geometry": {"location": {"lat": 24.8412073, "lng": 121.0199081}, "viewport": {"northeast": {"lat": 24.84238812989272, "lng": 121.0211494298927}, "southwest": {"lat": 24.83968847010728, "lng": 121.0184497701073}}}, "icon": "https://maps.gstatic.com/mapfiles/place_api/icons/v1/png_71/restaurant-71.png", "name": "\u53f0\u5143\u82b1\u5712\u9910\u5ef3sabrosa", "opening_hours": {"open_now": false}, "photos": [{"height": 4608, "html_attributions": ["<a href=\"https://maps.google.com/maps/contrib/101766678437666386692\">Prateek Pareek</a>"], "photo_reference": "ATtYBwL0zJ17LIjlICexOXsDcIzN6qW9IVCvonyPagWrOg4meAiok0wzgP0LZ6CA9kZQ0BKcslmnC9WMA8rteRJLB5JfnyP1KSIUkZSSTO1GLcgqBqR6bEDt48JfPNUV4CUUfH-zUEZFAvLVBDJJbXrkW3csh2aH9y20Ng6-G9iGlEyNFN0M", "width": 2304}], "place_id": "ChIJmYLI88Q2aDQRx9LP5frn7Do", "plus_code": {"compound_code": "R2R9+FX Zhubei City, Hsinchu County", "global_code": "7QP3R2R9+FX"}, "price_level": 2, "rating": 3.8, "reference": "ChIJmYLI88Q2aDQRx9LP5frn7Do", "scope": "GOOGLE", "types": ["restaurant", "food", "point_of_interest", "establishment"], "user_ratings_total": 346, "vicinity": "No. 2\u865f, Taiyuan 1st Street, Zhubei City"}, {"business_status": "OPERATIONAL", "geometry": {"location": {"lat": 24.835256, "lng": 121.009505}, "viewport": {"northeast": {"lat": 24.83663247989272, "lng": 121.0108142798927}, "southwest": {"lat": 24.83393282010728, "lng": 121.0081146201073}}}, "icon": "https://maps.gstatic.com/mapfiles/place_api/icons/v1/png_71/restaurant-71.png", "name": "\u98df\u5728\u5df7\u5f04", "opening_hours": {"open_now": false}, "photos": [{"height": 3024, "html_attributions": ["<a href=\"https://maps.google.com/maps/contrib/103429086012128231566\">\u674e\u8001\u723a</a>"], "photo_reference": "ATtYBwK_yRO-w9f5UevCjdU8nHlSCDZ_t2NGFvMmzf0eaGzzLgF44VIKqGfuTMrNY4HBXEAbj7hSdaTeA1x-cT0CwYJ-uCVf5Ievg_5DjYkQb7uH3QQMiPriP5D4g8Jjgo2NbLavfqsIIxgy688VIKv6x5O7VwJ89kPhqulmGYpiX9o6_U2t", "width": 4032}], "place_id": "ChIJ_Zu0RpU2aDQRwPWP1s2ihk4", "plus_code": {"compound_code": "R2P5+4R Zhubei City, Hsinchu County", "global_code": "7QP3R2P5+4R"}, "price_level": 2, "rating": 4.3, "reference": "ChIJ_Zu0RpU2aDQRwPWP1s2ihk4", "scope": "GOOGLE", "types": ["restaurant", "food", "point_of_interest", "establishment"], "user_ratings_total": 224, "vicinity": "No. 3, Lane 58, Fude Street, Zhubei City"}, {"business_status": "OPERATIONAL", "geometry": {"location": {"lat": 24.8184441, "lng": 121.0224097}, "viewport": {"northeast": {"lat": 24.81984867989272, "lng": 121.0237946298927}, "southwest": {"lat": 24.81714902010728, "lng": 121.0210949701073}}}, "icon": "https://maps.gstatic.com/mapfiles/place_api/icons/v1/png_71/restaurant-71.png", "name": "Moon of Wind City", "opening_hours": {"open_now": false}, "photos": [{"height": 3376, "html_attributions": ["<a href=\"https://maps.google.com/maps/contrib/112775943622836577181\">Roy Lee</a>"], "photo_reference": "ATtYBwJ84iFWMnFiPjxoz7O1Yf1twje-MMr-lKrl1EFb372wt0q161w5d_Y65e8O_Es-ubx_5GFkSSKFT0pohO3-nVJezbaLmCA5-ZK5gkJ6avomxTW3kDeCGc30VHOhYFhq5xVgnLIhGQYKAcScG1RIo9BntBOBxNtgI5LaK73OoZbxQaSB", "width": 5984}], "place_id": "ChIJkwRzDPo2aDQRstFs21jST5A", "plus_code": {"compound_code": "R29C+9X Zhubei City, Hsinchu County", "global_code": "7QP3R29C+9X"}, "price_level": 2, "rating": 4, "reference": "ChIJkwRzDPo2aDQRstFs21jST5A", "scope": "GOOGLE", "types": ["restaurant", "food", "point_of_interest", "establishment"], "user_ratings_total": 1902, "vicinity": "No. 268, Section 1, Fuxing East Road, Zhubei City"}, {"business_status": "OPERATIONAL", "geometry": {"location": {"lat": 24.8789221, "lng": 120.981069}, "viewport": {"northeast": {"lat": 24.88038787989272, "lng": 120.9825277798927}, "southwest": {"lat": 24.87768822010728, "lng": 120.9798281201073}}}, "icon": "https://maps.gstatic.com/mapfiles/place_api/icons/v1/png_71/restaurant-71.png", "name": "\u65b0\u8c50\u7403\u5834-\u570b\u8cd3\u4e2d\u9910\u5ef3", "opening_hours": {"open_now": false}, "photos": [{"height": 3024, "html_attributions": ["<a href=\"https://maps.google.com/maps/contrib/110905147919313768703\">\u5353\u98ef\u7cf0</a>"], "photo_reference": "ATtYBwKpy6nov3HjaOmJn_2r5iwkm2wMRPGA1fLQEm-ghaG7HoU1QAmBtkwtsq-HDxFEkDgyHTwsgoGlR_hxYu0Tx98FFx58KbrhiwzkJuezpqkIWt6bmJNsLj7sa6P5zIeT6wfP-gfjjMGSZRLeu7tGxeNBrNJqVmb0xgrA8-_uIENsTDoP", "width": 3024}], "place_id": "ChIJqzOBkb8zaDQRRNSI2ZjG-YM", "plus_code": {"compound_code": "VXHJ+HC Xinfeng Township, Hsinchu County", "global_code": "7QP2VXHJ+HC"}, "rating": 3.9, "reference": "ChIJqzOBkb8zaDQRRNSI2ZjG-YM", "scope": "GOOGLE", "types": ["restaurant", "food", "point_of_interest", "establishment"], "user_ratings_total": 101, "vicinity": "No. 104\u865f, \u5751\u5b50\u53e3, Xinfeng Township"}, {"business_status": "OPERATIONAL", "geometry": {"location": {"lat": 24.8103698, "lng": 121.0364851}, "viewport": {"northeast": {"lat": 24.81171962989272, "lng": 121.0378349298927}, "southwest": {"lat": 24.80901997010728, "lng": 121.0351352701073}}}, "icon": "https://maps.gstatic.com/mapfiles/place_api/icons/v1/png_71/restaurant-71.png", "name": "Bistro302 \u539f\u5473\u6599\u7406\u9910\u5ef3", "opening_hours": {"open_now": false}, "photos": [{"height": 3000, "html_attributions": ["<a href=\"https://maps.google.com/maps/contrib/102635829615731061589\">Franky Chen</a>"], "photo_reference": "ATtYBwIdLEQGF-y9x5VGvo10EcoaRuQ7nA44GLy_C2ndqN_oeGzaqc8G7QnPb75-HQETkQUJDR5CFbCMygzgX12N0joasw9tH32iH-btSYO6m3H5sNTGgF2qFFulsKmHdNZq6XKMZ3Qa8xfCTpzJnU7Wuch7L_CaBTuBgX1rA8PGuNvcQB-Z", "width": 4000}], "place_id": "ChIJRTmW9QA3aDQRULFpEdWHUk0", "plus_code": {"compound_code": "R26P+4H Zhubei City, Hsinchu County", "global_code": "7QP3R26P+4H"}, "price_level": 3, "rating": 4.1, "reference": "ChIJRTmW9QA3aDQRULFpEdWHUk0", "scope": "GOOGLE", "types": ["restaurant", "food", "point_of_interest", "establishment"], "user_ratings_total": 788, "vicinity": "Zhubei City, Section 1, Jiafeng 11th Rd, 30\u865f2\u6a13"}, {"business_status": "OPERATIONAL", "geometry": {"location": {"lat": 24.8071925, "lng": 120.9779874}, "viewport": {"northeast": {"lat": 24.80856907989272, "lng": 120.9793813798927}, "southwest": {"lat": 24.80586942010728, "lng": 120.9766817201073}}}, "icon": "https://maps.gstatic.com/mapfiles/place_api/icons/v1/png_71/restaurant-71.png", "name": "Yummy\u79c1\u623f\u6599\u7406", "opening_hours": {"open_now": false}, "photos": [{"height": 1941, "html_attributions": ["<a href=\"https://maps.google.com/maps/contrib/115430959106720610846\">Yujane Huang</a>"], "photo_reference": "ATtYBwK9JVSVK2kM7237_2AMYlBoz95y_Q7IMSiTEM3mnCMWKPFRmXsTnpI_6PxLkVCi96Ed27h80DA-tpAGRYECc2b6fkBOfe55tEe7-ZMOLYlgko_yjDt8XX1E35WPsA3CqziFCFgGroUMcXmMup9HjIe1Sz-pwMo_ek5u6qtXvLmwUBQX", "width": 1941}], "place_id": "ChIJFcaxbts1aDQRCshSsriUZHw", "plus_code": {"compound_code": "RX4H+V5 East District, Hsinchu City", "global_code": "7QP2RX4H+V5"}, "price_level": 2, "rating": 4, "reference": "ChIJFcaxbts1aDQRCshSsriUZHw", "scope": "GOOGLE", "types": ["restaurant", "food", "point_of_interest", "establishment"], "user_ratings_total": 563, "vicinity": "No. 70\u865f, Lane 170, Section 2, Zhonghua Road, East District"}, {"business_status": "OPERATIONAL", "geometry": {"location": {"lat": 24.8315322, "lng": 121.0082397}, "viewport": {"northeast": {"lat": 24.83291672989272, "lng": 121.0095121298927}, "southwest": {"lat": 24.83021707010728, "lng": 121.0068124701073}}}, "icon": "https://maps.gstatic.com/mapfiles/place_api/icons/v1/png_71/restaurant-71.png", "name": "simple life", "opening_hours": {"open_now": false}, "photos": [{"height": 4624, "html_attributions": ["<a href=\"https://maps.google.com/maps/contrib/101875984622128421858\">Rock Wang</a>"], "photo_reference": "ATtYBwLl83uquH_2IBnKUyRe4k1nHgg0Zn4KnZvWxe1FLCBKUbH5zN1JsQ2WHbhg66HMXSEQx5zB0chDOxbCELeCZ0taKgwxA_x7lga2xzf2BTLGM0iY8iYMktUB5rqJUDrF3dOPlq-b0uwhibzXrzhfesPpJGC5U9yTp2fEiykWLVCNMdgA", "width": 3468}], "place_id": "ChIJHwiXg5Q2aDQRb422YgGb3Hg", "plus_code": {"compound_code": "R2J5+J7 Zhubei City, Hsinchu County", "global_code": "7QP3R2J5+J7"}, "price_level": 2, "rating": 4, "reference": "ChIJHwiXg5Q2aDQRb422YgGb3Hg", "scope": "GOOGLE", "types": ["restaurant", "food", "point_of_interest", "establishment"], "user_ratings_total": 420, "vicinity": "No. 148\u865f, Xianzheng 13th Road, Zhubei City"}, {"business_status": "OPERATIONAL", "geometry": {"location": {"lat": 24.8313746, "lng": 121.0171082}, "viewport": {"northeast": {"lat": 24.83280102989272, "lng": 121.0184898798928}, "southwest": {"lat": 24.83010137010728, "lng": 121.0157902201073}}}, "icon": "https://maps.gstatic.com/mapfiles/place_api/icons/v1/png_71/restaurant-71.png", "name": "\u83ab\u5167\u82b1\u5712", "opening_hours": {"open_now": false}, "photos": [{"height": 3096, "html_attributions": ["<a href=\"https://maps.google.com/maps/contrib/108798893926957881233\">A Google User</a>"], "photo_reference": "ATtYBwIaE5uO_1r-9BpZAjFyX9a2lFk-iER7AJFU27iXn1o6qHdQS9qjHu68i00cvsG3T7LvGEMEZx1KlmQCBUcLSvtLBKYDxuiRXILxUOZvHjoOM8icgaGamSBLMipWDlr7521VcKjo26nAeZtZNw8Clz5QBmSTLzghdkVBIGtR6OM8FRxX", "width": 4128}], "place_id": "ChIJaWDgDes2aDQRkjB0Q-PzO0M", "plus_code": {"compound_code": "R2J8+GR Zhubei City, Hsinchu County", "global_code": "7QP3R2J8+GR"}, "price_level": 2, "rating": 4.4, "reference": "ChIJaWDgDes2aDQRkjB0Q-PzO0M", "scope": "GOOGLE", "types": ["restaurant", "food", "point_of_interest", "establishment"], "user_ratings_total": 155, "vicinity": "No. 139\u865f, Wenxin Road, Zhubei City"}, {"business_status": "OPERATIONAL", "geometry": {"location": {"lat": 24.8099446, "lng": 120.9782194}, "viewport": {"northeast": {"lat": 24.81124402989272, "lng": 120.9796090798927}, "southwest": {"lat": 24.80854437010728, "lng": 120.9769094201072}}}, "icon": "https://maps.gstatic.com/mapfiles/place_api/icons/v1/png_71/restaurant-71.png", "name": "\u590f\u5361\u74e6\u5496\u5561\u9910\u5ef3", "opening_hours": {"open_now": false}, "photos": [{"height": 4000, "html_attributions": ["<a href=\"https://maps.google.com/maps/contrib/109568130805539626326\">Jack Cheng</a>"], "photo_reference": "ATtYBwJNdA_r_qpWhm9LTANAdPTwECO4Wf3-zhPFw1YvP5dioAaRl_sQCG0N06ciCFoCbG4vGAoaOJBeJONNVQ5ity6zfXFA41iADeNZ9SdYebhr9wLRHmcMRsJyzQ_9oN5D9UW99KJRsnj4VU-QiKGr2U9nCx0m4aP6lqBfXLIjIaVaJG_M", "width": 3000}], "place_id": "ChIJ9UHB7do1aDQRqmwWYibh-Qs", "plus_code": {"compound_code": "RX5H+X7 East District, Hsinchu City", "global_code": "7QP2RX5H+X7"}, "price_level": 2, "rating": 4, "reference": "ChIJ9UHB7do1aDQRqmwWYibh-Qs", "scope": "GOOGLE", "types": ["restaurant", "food", "point_of_interest", "establishment"], "user_ratings_total": 411, "vicinity": "1, No. 105\u865f, Sanmin Road, East District"}, {"business_status": "OPERATIONAL", "geometry": {"location": {"lat": 24.8224032, "lng": 121.0290067}, "viewport": {"northeast": {"lat": 24.82381837989272, "lng": 121.0303825298927}, "southwest": {"lat": 24.82111872010728, "lng": 121.0276828701073}}}, "icon": "https://maps.gstatic.com/mapfiles/place_api/icons/v1/png_71/restaurant-71.png", "name": "Bingo\u8cd3\u679c\u5eda\u623f", "opening_hours": {"open_now": false}, "photos": [{"height": 1080, "html_attributions": ["<a href=\"https://maps.google.com/maps/contrib/109605959421663410967\">\u9673\u5e0c\u5091</a>"], "photo_reference": "ATtYBwJWtuY1lzEfCFm4y9AQjq0LtsTZfZFRXaFPhxzJ-BoCGtMwDBu7HPeMJE4WlXd7aeeRl0-c_dcvTJiuF7uBiydl-Ma_rxFZlt-PXq9RG6vFXNeOa8NuYqkyzhUf296_Idw37ExKUGqfNR_BDbSiHtIUDPpcZBsTt9WkjqmxIMpBCwck", "width": 1616}], "place_id": "ChIJD2m0QeM2aDQR5uYzlZEC79k", "plus_code": {"compound_code": "R2CH+XJ Zhubei City, Hsinchu County", "global_code": "7QP3R2CH+XJ"}, "price_level": 2, "rating": 4.1, "reference": "ChIJD2m0QeM2aDQR5uYzlZEC79k", "scope": "GOOGLE", "types": ["restaurant", "food", "point_of_interest", "store", "establishment"], "user_ratings_total": 241, "vicinity": "No. 170\u865f, Shengli 3rd Street, Zhubei City"}]